{"date":"2026-06-24","matches":[{"id":"2026-06-24_switzerland-vs-canada","date":"2026-06-24","stage":"Group B","kickoff_utc":"2026-06-24T19:00:00Z","kickoff_local":"2026-06-24 11:00","team_a":"Switzerland","team_b":"Canada","venue":{"key":"bc_place","stadium":"BC Place","city":"Vancouver","country":"Canada","lat":49.277,"lon":-123.112},"t2m_at_kickoff":21.8,"heat_index_at_kickoff":21.3},{"id":"2026-06-24_bosnia-and-herzegovina-vs-qatar","date":"2026-06-24","stage":"Group B","kickoff_utc":"2026-06-24T19:00:00Z","kickoff_local":"2026-06-24 11:00","team_a":"Bosnia and Herzegovina","team_b":"Qatar","venue":{"key":"lumen_field","stadium":"Lumen Field","city":"Seattle","country":"United States","lat":47.595,"lon":-122.332},"t2m_at_kickoff":22.8,"heat_index_at_kickoff":22.5},{"id":"2026-06-24_scotland-vs-brazil","date":"2026-06-24","stage":"Group C","kickoff_utc":"2026-06-24T22:00:00Z","kickoff_local":"2026-06-24 17:00","team_a":"Scotland","team_b":"Brazil","venue":{"key":"hard_rock","stadium":"Hard Rock Stadium","city":"Miami","country":"United States","lat":25.958,"lon":-80.239},"t2m_at_kickoff":26.7,"heat_index_at_kickoff":27.6},{"id":"2026-06-24_morocco-vs-haiti","date":"2026-06-24","stage":"Group C","kickoff_utc":"2026-06-24T22:00:00Z","kickoff_local":"2026-06-24 16:00","team_a":"Morocco","team_b":"Haiti","venue":{"key":"mercedes_benz","stadium":"Mercedes-Benz Stadium","city":"Atlanta","country":"United States","lat":33.755,"lon":-84.401},"t2m_at_kickoff":26.5,"heat_index_at_kickoff":27.1},{"id":"2026-06-24_czechia-vs-mexico","date":"2026-06-24","stage":"Group A","kickoff_utc":"2026-06-25T01:00:00Z","kickoff_local":"2026-06-24 18:00","team_a":"Czechia","team_b":"Mexico","venue":{"key":"estadio_azteca","stadium":"Estadio Azteca","city":"Mexico City","country":"Mexico","lat":19.303,"lon":-99.15},"t2m_at_kickoff":27.0,"heat_index_at_kickoff":27.8},{"id":"2026-06-24_south-africa-vs-south-korea","date":"2026-06-24","stage":"Group A","kickoff_utc":"2026-06-25T01:00:00Z","kickoff_local":"2026-06-24 18:00","team_a":"South Africa","team_b":"South Korea","venue":{"key":"estadio_bbva","stadium":"Estadio BBVA","city":"Monterrey","country":"Mexico","lat":25.669,"lon":-100.244},"t2m_at_kickoff":26.7,"heat_index_at_kickoff":27.3}]}
