{"date":"2026-06-26","matches":[{"id":"2026-06-26_norway-vs-france","date":"2026-06-26","stage":"Group I","kickoff_utc":"2026-06-26T19:00:00Z","kickoff_local":"2026-06-26 14:00","team_a":"Norway","team_b":"France","venue":{"key":"gillette","stadium":"Gillette Stadium","city":"Boston","country":"United States","lat":42.091,"lon":-71.264},"t2m_at_kickoff":24.5,"heat_index_at_kickoff":24.7,"t2m_map":"t2m/2026-06-26T18.json"},{"id":"2026-06-26_senegal-vs-iraq","date":"2026-06-26","stage":"Group I","kickoff_utc":"2026-06-26T19:00:00Z","kickoff_local":"2026-06-26 14:00","team_a":"Senegal","team_b":"Iraq","venue":{"key":"bmo_field","stadium":"BMO Field","city":"Toronto","country":"Canada","lat":43.633,"lon":-79.419},"t2m_at_kickoff":19.2,"heat_index_at_kickoff":19.5,"t2m_map":"t2m/2026-06-26T18.json"},{"id":"2026-06-26_cape-verde-vs-saudi-arabia","date":"2026-06-26","stage":"Group H","kickoff_utc":"2026-06-27T00:00:00Z","kickoff_local":"2026-06-26 18:00","team_a":"Cape Verde","team_b":"Saudi Arabia","venue":{"key":"nrg_stadium","stadium":"NRG Stadium","city":"Houston","country":"United States","lat":29.685,"lon":-95.411},"t2m_at_kickoff":29.5,"heat_index_at_kickoff":32.7,"t2m_map":"t2m/2026-06-27T00.json"},{"id":"2026-06-26_uruguay-vs-spain","date":"2026-06-26","stage":"Group H","kickoff_utc":"2026-06-27T00:00:00Z","kickoff_local":"2026-06-26 17:00","team_a":"Uruguay","team_b":"Spain","venue":{"key":"estadio_akron","stadium":"Estadio Akron","city":"Guadalajara","country":"Mexico","lat":20.681,"lon":-103.463},"t2m_at_kickoff":21.5,"heat_index_at_kickoff":21.4,"t2m_map":"t2m/2026-06-27T00.json"},{"id":"2026-06-26_egypt-vs-iran","date":"2026-06-26","stage":"Group G","kickoff_utc":"2026-06-27T03:00:00Z","kickoff_local":"2026-06-26 19:00","team_a":"Egypt","team_b":"Iran","venue":{"key":"lumen_field","stadium":"Lumen Field","city":"Seattle","country":"United States","lat":47.595,"lon":-122.332},"t2m_at_kickoff":16.9,"heat_index_at_kickoff":16.4,"t2m_map":"t2m/2026-06-27T00.json"},{"id":"2026-06-26_new-zealand-vs-belgium","date":"2026-06-26","stage":"Group G","kickoff_utc":"2026-06-27T03:00:00Z","kickoff_local":"2026-06-26 19:00","team_a":"New Zealand","team_b":"Belgium","venue":{"key":"bc_place","stadium":"BC Place","city":"Vancouver","country":"Canada","lat":49.277,"lon":-123.112},"t2m_at_kickoff":14.0,"heat_index_at_kickoff":13.7,"t2m_map":"t2m/2026-06-27T00.json"}]}
