{
  "note": "Real FIFA World Cup 2026 fixtures for 2026-06-15 (group stage), verified from FOX Sports / ESPN / Al Jazeera / Ticketmaster (Jun 2026). 'home'/'away' are the competing nations whose CAPITAL cities are compared against the match VENUE. Coordinates are decimal degrees (lon -180..180; normalised to 0-360 at query time); venue/capital coords are approximate.",
  "capitals": {
    "Spain":        {"name": "Madrid",       "lat": 40.4168,  "lon": -3.7038,   "flag": "🇪🇸"},
    "Cape Verde":   {"name": "Praia",        "lat": 14.9218,  "lon": -23.5087,  "flag": "🇨🇻"},
    "Belgium":      {"name": "Brussels",     "lat": 50.8503,  "lon": 4.3517,    "flag": "🇧🇪"},
    "Egypt":        {"name": "Cairo",        "lat": 30.0444,  "lon": 31.2357,   "flag": "🇪🇬"},
    "Saudi Arabia": {"name": "Riyadh",       "lat": 24.7136,  "lon": 46.6753,   "flag": "🇸🇦"},
    "Uruguay":      {"name": "Montevideo",   "lat": -34.9011, "lon": -56.1645,  "flag": "🇺🇾"},
    "Iran":         {"name": "Tehran",       "lat": 35.6892,  "lon": 51.3890,   "flag": "🇮🇷"},
    "New Zealand":  {"name": "Wellington",   "lat": -41.2865, "lon": 174.7762,  "flag": "🇳🇿"}
  },
  "matches": [
    {
      "date": "2026-06-15", "stage": "Group Stage", "group": "H",
      "home": "Spain", "away": "Cape Verde",
      "venue": {"name": "Mercedes-Benz Stadium", "city": "Atlanta", "country": "United States", "lat": 33.7554, "lon": -84.4008}
    },
    {
      "date": "2026-06-15", "stage": "Group Stage", "group": "G",
      "home": "Belgium", "away": "Egypt",
      "venue": {"name": "Lumen Field", "city": "Seattle", "country": "United States", "lat": 47.5952, "lon": -122.3316}
    },
    {
      "date": "2026-06-15", "stage": "Group Stage", "group": "H",
      "home": "Saudi Arabia", "away": "Uruguay",
      "venue": {"name": "Hard Rock Stadium", "city": "Miami Gardens", "country": "United States", "lat": 25.9580, "lon": -80.2389}
    },
    {
      "date": "2026-06-15", "stage": "Group Stage", "group": "G",
      "home": "Iran", "away": "New Zealand",
      "venue": {"name": "SoFi Stadium", "city": "Inglewood", "country": "United States", "lat": 33.9535, "lon": -118.3392}
    }
  ]
}
